[
{
    "fields": {
        "verified": true,
        "name": "Chalsa",
        "district": 1,
        "longitude": 81.3814276584,
        "latitude": 29.0589462112,
        "cannonical_name": null
    },
    "model": "dataentry.vdc",
    "pk": 15
},
{
    "fields": {
        "verified": true,
        "name": "Chandika",
        "district": 1,
        "longitude": 81.2336041444,
        "latitude": 29.1837169619,
        "cannonical_name": null
    },
    "model": "dataentry.vdc",
    "pk": 16
},
{
    "fields": {
        "verified": true,
        "name": "Chandika(Bayalpata)",
        "district": 1,
        "longitude": 81.2336041444,
        "latitude": 29.1837169619,
        "cannonical_name": 16
    },
    "model": "dataentry.vdc",
    "pk": 17
},
{
    "fields": {
        "verified": true,
        "name": "Chaphamandau",
        "district": 1,
        "longitude": 81.3821111635,
        "latitude": 29.1487339277,
        "cannonical_name": null
    },
    "model": "dataentry.vdc",
    "pk": 18
},
{
    "fields": {
        "verified": true,
        "name": "Darna",
        "district": 1,
        "longitude": 81.3370619631,
        "latitude": 29.1881908135,
        "cannonical_name": null
    },
    "model": "dataentry.vdc",
    "pk": 19
},
{
    "fields": {
        "verified": true,
        "name": "Devisthan",
        "district": 1,
        "longitude": 81.2010444465,
        "latitude": 29.304386682,
        "cannonical_name": null
    },
    "model": "dataentry.vdc",
    "pk": 20
},
{
    "fields": {
        "verified": true,
        "name": "Marku",
        "district": 1,
        "longitude": 81.1460533537,
        "latitude": 29.2326807824,
        "cannonical_name": null
    },
    "model": "dataentry.vdc",
    "pk": 21
},
{
    "fields": {
        "verified": true,
        "name": "Mashtabamdali",
        "district": 1,
        "longitude": 81.314692705,
        "latitude": 29.0447168775,
        "cannonical_name": null
    },
    "model": "dataentry.vdc",
    "pk": 22
},
{
    "fields": {
        "verified": true,
        "name": "Mashtanamdali",
        "district": 1,
        "longitude": 81.314692705,
        "latitude": 29.0447168775,
        "cannonical_name": 22
    },
    "model": "dataentry.vdc",
    "pk": 23
},
{
    "fields": {
        "verified": true,
        "name": "Babala",
        "district": 1,
        "longitude": 81.2466528783,
        "latitude": 29.3203558468,
        "cannonical_name": null
    },
    "model": "dataentry.vdc",
    "pk": 24
},
{
    "fields": {
        "verified": true,
        "name": "Baijinath",
        "district": 1,
        "longitude": 81.1971298263,
        "latitude": 29.2081988722,
        "cannonical_name": null
    },
    "model": "dataentry.vdc",
    "pk": 25
},
{
    "fields": {
        "verified": true,
        "name": "Bannatoli",
        "district": 1,
        "longitude": 81.3227704927,
        "latitude": 29.1398483613,
        "cannonical_name": null
    },
    "model": "dataentry.vdc",
    "pk": 26
},
{
    "fields": {
        "verified": true,
        "name": "Baradadivi",
        "district": 1,
        "longitude": 81.2962380671,
        "latitude": 29.2058376727,
        "cannonical_name": null
    },
    "model": "dataentry.vdc",
    "pk": 27
},
{
    "fields": {
        "verified": true,
        "name": "Basti",
        "district": 1,
        "longitude": 81.1739527895,
        "latitude": 29.060437495,
        "cannonical_name": null
    },
    "model": "dataentry.vdc",
    "pk": 28
},
{
    "fields": {
        "verified": true,
        "name": "Batulasen",
        "district": 1,
        "longitude": 81.4526364633,
        "latitude": 29.1667536079,
        "cannonical_name": null
    },
    "model": "dataentry.vdc",
    "pk": 29
},
{
    "fields": {
        "verified": true,
        "name": "Bayala",
        "district": 1,
        "longitude": 81.3850937312,
        "latitude": 29.0459596141,
        "cannonical_name": null
    },
    "model": "dataentry.vdc",
    "pk": 30
},
{
    "fields": {
        "verified": true,
        "name": "Bhagyaswori",
        "district": 1,
        "longitude": 81.2393207326,
        "latitude": 29.2113678504,
        "cannonical_name": null
    },
    "model": "dataentry.vdc",
    "pk": 31
},
{
    "fields": {
        "verified": true,
        "name": "Bhairabsthan",
        "district": 1,
        "longitude": 81.4397741399,
        "latitude": 28.9242335679,
        "cannonical_name": null
    },
    "model": "dataentry.vdc",
    "pk": 32
},
{
    "fields": {
        "verified": true,
        "name": "Bhatakatiya",
        "district": 1,
        "longitude": 81.4241156592,
        "latitude": 29.231375909,
        "cannonical_name": null
    },
    "model": "dataentry.vdc",
    "pk": 33
},
{
    "fields": {
        "verified": true,
        "name": "Bhuli",
        "district": 1,
        "longitude": 81.3580020742,
        "latitude": 29.0343400273,
        "cannonical_name": null
    },
    "model": "dataentry.vdc",
    "pk": 34
},
{
    "fields": {
        "verified": true,
        "name": "Binayak",
        "district": 1,
        "longitude": 81.3988881071,
        "latitude": 29.1030633591,
        "cannonical_name": null
    },
    "model": "dataentry.vdc",
    "pk": 35
},
{
    "fields": {
        "verified": true,
        "name": "Bindhyawasini",
        "district": 1,
        "longitude": 81.2925098574,
        "latitude": 29.2703978371,
        "cannonical_name": null
    },
    "model": "dataentry.vdc",
    "pk": 36
},
{
    "fields": {
        "verified": true,
        "name": "Birpath",
        "district": 1,
        "longitude": 81.3243239134,
        "latitude": 29.0974710446,
        "cannonical_name": null
    },
    "model": "dataentry.vdc",
    "pk": 37
},
{
    "fields": {
        "verified": true,
        "name": "Budhakot",
        "district": 1,
        "longitude": 81.1742634736,
        "latitude": 29.2715784368,
        "cannonical_name": null
    },
    "model": "dataentry.vdc",
    "pk": 38
},
{
    "fields": {
        "verified": true,
        "name": "Chandika(Bayalpata)",
        "district": 1,
        "longitude": 81.2336041444,
        "latitude": 29.1837169619,
        "cannonical_name": 16
    },
    "model": "dataentry.vdc",
    "pk": 39
},
{
    "fields": {
        "verified": true,
        "name": "Dhakari",
        "district": 1,
        "longitude": 81.257961781,
        "latitude": 28.9865568065,
        "cannonical_name": null
    },
    "model": "dataentry.vdc",
    "pk": 40
},
{
    "fields": {
        "verified": true,
        "name": "Dhaku",
        "district": 1,
        "longitude": 81.3278035758,
        "latitude": 29.0657812623,
        "cannonical_name": null
    },
    "model": "dataentry.vdc",
    "pk": 41
},
{
    "fields": {
        "verified": true,
        "name": "Dhamali",
        "district": 1,
        "longitude": 81.3734741444,
        "latitude": 29.0073726439,
        "cannonical_name": null
    },
    "model": "dataentry.vdc",
    "pk": 42
},
{
    "fields": {
        "verified": true,
        "name": "Dhodasain",
        "district": 1,
        "longitude": 81.3057450018,
        "latitude": 29.0153882947,
        "cannonical_name": null
    },
    "model": "dataentry.vdc",
    "pk": 43
},
{
    "fields": {
        "verified": true,
        "name": "Dhudharukot",
        "district": 1,
        "longitude": 81.2284467877,
        "latitude": 29.2779785301,
        "cannonical_name": null
    },
    "model": "dataentry.vdc",
    "pk": 44
},
{
    "fields": {
        "verified": true,
        "name": "Dhungachalna",
        "district": 1,
        "longitude": 81.2761057348,
        "latitude": 28.9504553094,
        "cannonical_name": null
    },
    "model": "dataentry.vdc",
    "pk": 45
},
{
    "fields": {
        "verified": true,
        "name": "Duni",
        "district": 1,
        "longitude": 81.1207015278,
        "latitude": 29.272945447,
        "cannonical_name": null
    },
    "model": "dataentry.vdc",
    "pk": 46
},
{
    "fields": {
        "verified": true,
        "name": "Gajara",
        "district": 1,
        "longitude": 81.2555384447,
        "latitude": 29.2097522929,
        "cannonical_name": null
    },
    "model": "dataentry.vdc",
    "pk": 47
},
{
    "fields": {
        "verified": true,
        "name": "Hatikot",
        "district": 1,
        "longitude": 81.2513131404,
        "latitude": 29.2664210801,
        "cannonical_name": null
    },
    "model": "dataentry.vdc",
    "pk": 48
},
{
    "fields": {
        "verified": true,
        "name": "Hichma",
        "district": 1,
        "longitude": 81.2204311369,
        "latitude": 29.0104173485,
        "cannonical_name": null
    },
    "model": "dataentry.vdc",
    "pk": 49
},
{
    "fields": {
        "verified": true,
        "name": "Jalapadevi",
        "district": 1,
        "longitude": 81.1881199863,
        "latitude": 29.2303817198,
        "cannonical_name": null
    },
    "model": "dataentry.vdc",
    "pk": 50
},
{
    "fields": {
        "verified": true,
        "name": "Janalibandali",
        "district": 1,
        "longitude": 81.2765406926,
        "latitude": 29.09187873,
        "cannonical_name": null
    },
    "model": "dataentry.vdc",
    "pk": 51
},
{
    "fields": {
        "verified": true,
        "name": "Janalikot",
        "district": 1,
        "longitude": 81.2569675918,
        "latitude": 29.1777518264,
        "cannonical_name": null
    },
    "model": "dataentry.vdc",
    "pk": 52
},
{
    "fields": {
        "verified": true,
        "name": "Jupu",
        "district": 1,
        "longitude": 81.3042537179,
        "latitude": 29.1430173395,
        "cannonical_name": null
    },
    "model": "dataentry.vdc",
    "pk": 53
},
{
    "fields": {
        "verified": true,
        "name": "Kalagau",
        "district": 1,
        "longitude": 81.3419086357,
        "latitude": 29.1427066554,
        "cannonical_name": null
    },
    "model": "dataentry.vdc",
    "pk": 54
},
{
    "fields": {
        "verified": true,
        "name": "Kalekanda",
        "district": 1,
        "longitude": 81.5200549218,
        "latitude": 29.1188461134,
        "cannonical_name": null
    },
    "model": "dataentry.vdc",
    "pk": 55
},
{
    "fields": {
        "verified": true,
        "name": "Kalika",
        "district": 1,
        "longitude": 81.2969215722,
        "latitude": 29.1794916576,
        "cannonical_name": null
    },
    "model": "dataentry.vdc",
    "pk": 56
},
{
    "fields": {
        "verified": true,
        "name": "Kalikasthan",
        "district": 1,
        "longitude": 81.4331254993,
        "latitude": 29.0519247496,
        "cannonical_name": null
    },
    "model": "dataentry.vdc",
    "pk": 57
},
{
    "fields": {
        "verified": true,
        "name": "Khaptad",
        "district": 1,
        "longitude": 81.2070717188,
        "latitude": 29.3380648428,
        "cannonical_name": null
    },
    "model": "dataentry.vdc",
    "pk": 58
},
{
    "fields": {
        "verified": true,
        "name": "Khodasadevi",
        "district": 1,
        "longitude": 81.3397959836,
        "latitude": 29.2447974639,
        "cannonical_name": null
    },
    "model": "dataentry.vdc",
    "pk": 59
},
{
    "fields": {
        "verified": true,
        "name": "Kuika",
        "district": 1,
        "longitude": 81.375400386,
        "latitude": 29.09442634,
        "cannonical_name": null
    },
    "model": "dataentry.vdc",
    "pk": 60
},
{
    "fields": {
        "verified": true,
        "name": "Kuntibandali",
        "district": 1,
        "longitude": 81.1848267344,
        "latitude": 29.0932457403,
        "cannonical_name": null
    },
    "model": "dataentry.vdc",
    "pk": 61
},
{
    "fields": {
        "verified": true,
        "name": "Kushkot",
        "district": 1,
        "longitude": 81.2882845531,
        "latitude": 29.2897223906,
        "cannonical_name": null
    },
    "model": "dataentry.vdc",
    "pk": 62
},
{
    "fields": {
        "verified": true,
        "name": "Layati",
        "district": 1,
        "longitude": 81.4450557703,
        "latitude": 29.0769658913,
        "cannonical_name": null
    },
    "model": "dataentry.vdc",
    "pk": 63
},
{
    "fields": {
        "verified": true,
        "name": "Lungra",
        "district": 1,
        "longitude": 81.162208929,
        "latitude": 29.2060240832,
        "cannonical_name": null
    },
    "model": "dataentry.vdc",
    "pk": 64
},
{
    "fields": {
        "verified": true,
        "name": "Malatikot",
        "district": 1,
        "longitude": 81.3614817366,
        "latitude": 29.1428309291,
        "cannonical_name": null
    },
    "model": "dataentry.vdc",
    "pk": 65
},
{
    "fields": {
        "verified": true,
        "name": "Mangalsen",
        "district": 1,
        "longitude": 81.2421790267,
        "latitude": 29.1366172462,
        "cannonical_name": null
    },
    "model": "dataentry.vdc",
    "pk": 66
},
{
    "fields": {
        "verified": true,
        "name": "Mashtanamdali",
        "district": 1,
        "longitude": 81.314692705,
        "latitude": 29.0447168775,
        "cannonical_name": 22
    },
    "model": "dataentry.vdc",
    "pk": 67
},
{
    "fields": {
        "verified": true,
        "name": "Mastamandau",
        "district": 1,
        "longitude": 81.2419304794,
        "latitude": 29.24585379,
        "cannonical_name": null
    },
    "model": "dataentry.vdc",
    "pk": 68
},
{
    "fields": {
        "verified": true,
        "name": "Nada",
        "district": 1,
        "longitude": 81.3335201639,
        "latitude": 28.9428124795,
        "cannonical_name": null
    },
    "model": "dataentry.vdc",
    "pk": 69
},
{
    "fields": {
        "verified": true,
        "name": "Nandegada",
        "district": 1,
        "longitude": 81.2949953305,
        "latitude": 29.2295118042,
        "cannonical_name": null
    },
    "model": "dataentry.vdc",
    "pk": 70
},
{
    "fields": {
        "verified": true,
        "name": "Nawathana",
        "district": 1,
        "longitude": 81.2421168899,
        "latitude": 29.2301331725,
        "cannonical_name": null
    },
    "model": "dataentry.vdc",
    "pk": 71
},
{
    "fields": {
        "verified": true,
        "name": "Oligau",
        "district": 1,
        "longitude": 81.283624291,
        "latitude": 29.1397240876,
        "cannonical_name": null
    },
    "model": "dataentry.vdc",
    "pk": 72
},
{
    "fields": {
        "verified": true,
        "name": "Patalkot",
        "district": 1,
        "longitude": 81.1417659125,
        "latitude": 29.2720133946,
        "cannonical_name": null
    },
    "model": "dataentry.vdc",
    "pk": 73
},
{
    "fields": {
        "verified": true,
        "name": "Payal",
        "district": 1,
        "longitude": 81.1832111769,
        "latitude": 29.1663186501,
        "cannonical_name": null
    },
    "model": "dataentry.vdc",
    "pk": 74
},
{
    "fields": {
        "verified": true,
        "name": "Pulletala",
        "district": 1,
        "longitude": 81.4651259658,
        "latitude": 29.1292229637,
        "cannonical_name": null
    },
    "model": "dataentry.vdc",
    "pk": 75
},
{
    "fields": {
        "verified": true,
        "name": "Rahaph",
        "district": 1,
        "longitude": 81.5239695419,
        "latitude": 28.8200922441,
        "cannonical_name": null
    },
    "model": "dataentry.vdc",
    "pk": 76
},
{
    "fields": {
        "verified": true,
        "name": "Ramarosan",
        "district": 1,
        "longitude": 81.4559297152,
        "latitude": 29.2287040254,
        "cannonical_name": null
    },
    "model": "dataentry.vdc",
    "pk": 77
},
{
    "fields": {
        "verified": true,
        "name": "Raniban",
        "district": 1,
        "longitude": 81.401435717,
        "latitude": 28.984568428,
        "cannonical_name": null
    },
    "model": "dataentry.vdc",
    "pk": 78
},
{
    "fields": {
        "verified": true,
        "name": "Risidaha",
        "district": 1,
        "longitude": 81.3776373119,
        "latitude": 29.2682851849,
        "cannonical_name": null
    },
    "model": "dataentry.vdc",
    "pk": 79
},
{
    "fields": {
        "verified": true,
        "name": "Rodikot",
        "district": 1,
        "longitude": 81.2187534425,
        "latitude": 29.2138533235,
        "cannonical_name": null
    },
    "model": "dataentry.vdc",
    "pk": 80
},
{
    "fields": {
        "verified": true,
        "name": "Ridikot",
        "district": 1,
        "longitude": 81.2187534425,
        "latitude": 29.2138533235,
        "cannonical_name": 80
    },
    "model": "dataentry.vdc",
    "pk": 81
},
{
    "fields": {
        "verified": true,
        "name": "Santada",
        "district": 1,
        "longitude": 81.397831781,
        "latitude": 29.1571223995,
        "cannonical_name": null
    },
    "model": "dataentry.vdc",
    "pk": 82
},
{
    "fields": {
        "verified": true,
        "name": "Sera",
        "district": 1,
        "longitude": 81.2874146375,
        "latitude": 29.0606860424,
        "cannonical_name": null
    },
    "model": "dataentry.vdc",
    "pk": 83
},
{
    "fields": {
        "verified": true,
        "name": "Siddheswor",
        "district": 1,
        "longitude": 81.2089358237,
        "latitude": 29.2517567886,
        "cannonical_name": null
    },
    "model": "dataentry.vdc",
    "pk": 84
},
{
    "fields": {
        "verified": true,
        "name": "Siudi",
        "district": 1,
        "longitude": 81.1156063079,
        "latitude": 29.1563767576,
        "cannonical_name": null
    },
    "model": "dataentry.vdc",
    "pk": 85
},
{
    "fields": {
        "verified": true,
        "name": "Soukat",
        "district": 1,
        "longitude": 81.0746581382,
        "latitude": 29.19452877,
        "cannonical_name": null
    },
    "model": "dataentry.vdc",
    "pk": 86
},
{
    "fields": {
        "verified": true,
        "name": "Sutar",
        "district": 1,
        "longitude": 81.3640293465,
        "latitude": 29.1998104004,
        "cannonical_name": null
    },
    "model": "dataentry.vdc",
    "pk": 87
},
{
    "fields": {
        "verified": true,
        "name": "Thanti",
        "district": 1,
        "longitude": 81.3270579338,
        "latitude": 29.294258379,
        "cannonical_name": null
    },
    "model": "dataentry.vdc",
    "pk": 88
},
{
    "fields": {
        "verified": true,
        "name": "Timilsain",
        "district": 1,
        "longitude": 81.2753600929,
        "latitude": 29.1806722573,
        "cannonical_name": null
    },
    "model": "dataentry.vdc",
    "pk": 89
},
{
    "fields": {
        "verified": true,
        "name": "Toli",
        "district": 1,
        "longitude": 81.4223136912,
        "latitude": 29.1206480814,
        "cannonical_name": null
    },
    "model": "dataentry.vdc",
    "pk": 90
},
{
    "fields": {
        "verified": true,
        "name": "Tosi",
        "district": 1,
        "longitude": 81.3635943887,
        "latitude": 28.9855626172,
        "cannonical_name": null
    },
    "model": "dataentry.vdc",
    "pk": 91
},
{
    "fields": {
        "verified": true,
        "name": "Turmakhad",
        "district": 1,
        "longitude": 81.3657070409,
        "latitude": 28.9396435013,
        "cannonical_name": null
    },
    "model": "dataentry.vdc",
    "pk": 92
},
{
    "fields": {
        "verified": true,
        "name": "Walanta",
        "district": 1,
        "longitude": 81.1659371387,
        "latitude": 28.9681643054,
        "cannonical_name": null
    },
    "model": "dataentry.vdc",
    "pk": 93
},
{
    "fields": {
        "verified": true,
        "name": "Walant",
        "district": 1,
        "longitude": 81.1659371387,
        "latitude": 28.9681643054,
        "cannonical_name": 93
    },
    "model": "dataentry.vdc",
    "pk": 94
},
{
    "fields": {
        "verified": true,
        "name": "Warla",
        "district": 1,
        "longitude": 81.4719610169,
        "latitude": 29.1217044075,
        "cannonical_name": null
    },
    "model": "dataentry.vdc",
    "pk": 95
},
{
    "fields": {
        "verified": true,
        "name": "Adguri",
        "district": 2,
        "longitude": 83.1943938907,
        "latitude": 27.9268753407,
        "cannonical_name": null
    },
    "model": "dataentry.vdc",
    "pk": 96
},
{
    "fields": {
        "verified": true,
        "name": "Argha",
        "district": 2,
        "longitude": 83.0964662497,
        "latitude": 28.0128105739,
        "cannonical_name": null
    },
    "model": "dataentry.vdc",
    "pk": 97
},
{
    "fields": {
        "verified": true,
        "name": "Arghatos",
        "district": 2,
        "longitude": 83.1786111364,
        "latitude": 28.0306438436,
        "cannonical_name": null
    },
    "model": "dataentry.vdc",
    "pk": 98
},
{
    "fields": {
        "verified": true,
        "name": "Asurkot",
        "district": 2,
        "longitude": 82.9889074003,
        "latitude": 27.9954743989,
        "cannonical_name": null
    },
    "model": "dataentry.vdc",
    "pk": 99
},
{
    "fields": {
        "verified": true,
        "name": "Balkot",
        "district": 2,
        "longitude": 83.2494471204,
        "latitude": 27.9604292279,
        "cannonical_name": null
    },
    "model": "dataentry.vdc",
    "pk": 100
},
{
    "fields": {
        "verified": true,
        "name": "Bangi",
        "district": 2,
        "longitude": 83.096714797,
        "latitude": 28.0438168511,
        "cannonical_name": null
    },
    "model": "dataentry.vdc",
    "pk": 101
},
{
    "fields": {
        "verified": true,
        "name": "Bangla",
        "district": 2,
        "longitude": 83.1851355033,
        "latitude": 27.9699361626,
        "cannonical_name": null
    },
    "model": "dataentry.vdc",
    "pk": 102
},
{
    "fields": {
        "verified": true,
        "name": "Wangla",
        "district": 2,
        "longitude": 83.1851355033,
        "latitude": 27.9699361626,
        "cannonical_name": 102
    },
    "model": "dataentry.vdc",
    "pk": 103
},
{
    "fields": {
        "verified": true,
        "name": "Bhagawati",
        "district": 2,
        "longitude": 83.2165146015,
        "latitude": 28.0401507783,
        "cannonical_name": null
    },
    "model": "dataentry.vdc",
    "pk": 104
},
{
    "fields": {
        "verified": true,
        "name": "Chhatraganj",
        "district": 2,
        "longitude": 83.2260215362,
        "latitude": 28.0072182594,
        "cannonical_name": null
    },
    "model": "dataentry.vdc",
    "pk": 105
},
{
    "fields": {
        "verified": true,
        "name": "Chidika",
        "district": 2,
        "longitude": 83.2798941661,
        "latitude": 27.9486232306,
        "cannonical_name": null
    },
    "model": "dataentry.vdc",
    "pk": 106
},
{
    "fields": {
        "verified": true,
        "name": "Dhakawang",
        "district": 2,
        "longitude": 83.0064921226,
        "latitude": 28.0486013869,
        "cannonical_name": null
    },
    "model": "dataentry.vdc",
    "pk": 107
},
{
    "fields": {
        "verified": true,
        "name": "Dhanchaur",
        "district": 2,
        "longitude": 83.0508578179,
        "latitude": 27.9286773087,
        "cannonical_name": null
    },
    "model": "dataentry.vdc",
    "pk": 108
},
{
    "fields": {
        "verified": true,
        "name": "Dharapani",
        "district": 2,
        "longitude": 83.0407916517,
        "latitude": 28.0184650253,
        "cannonical_name": null
    },
    "model": "dataentry.vdc",
    "pk": 109
},
{
    "fields": {
        "verified": true,
        "name": "Dhatiwang",
        "district": 2,
        "longitude": 83.2088096348,
        "latitude": 27.8869213603,
        "cannonical_name": null
    },
    "model": "dataentry.vdc",
    "pk": 110
},
{
    "fields": {
        "verified": true,
        "name": "Dhikura",
        "district": 2,
        "longitude": 83.1031770271,
        "latitude": 27.9350152652,
        "cannonical_name": null
    },
    "model": "dataentry.vdc",
    "pk": 111
},
{
    "fields": {
        "verified": true,
        "name": "Dibharna",
        "district": 2,
        "longitude": 83.1561176046,
        "latitude": 28.0104493745,
        "cannonical_name": null
    },
    "model": "dataentry.vdc",
    "pk": 112
},
{
    "fields": {
        "verified": true,
        "name": "Gorkhunga",
        "district": 2,
        "longitude": 83.0205350458,
        "latitude": 28.0820931372,
        "cannonical_name": null
    },
    "model": "dataentry.vdc",
    "pk": 113
},
{
    "fields": {
        "verified": true,
        "name": "Gokhunga",
        "district": 2,
        "longitude": 83.0205350458,
        "latitude": 28.0820931372,
        "cannonical_name": 113
    },
    "model": "dataentry.vdc",
    "pk": 114
},
{
    "fields": {
        "verified": true,
        "name": "Hansapur",
        "district": 2,
        "longitude": 83.0664541617,
        "latitude": 28.0778678329,
        "cannonical_name": null
    },
    "model": "dataentry.vdc",
    "pk": 115
},
{
    "fields": {
        "verified": true,
        "name": "Jukena",
        "district": 2,
        "longitude": 83.0368148947,
        "latitude": 27.8890340124,
        "cannonical_name": null
    },
    "model": "dataentry.vdc",
    "pk": 116
},
{
    "fields": {
        "verified": true,
        "name": "Juluke",
        "district": 2,
        "longitude": 82.8792358988,
        "latitude": 27.8629986815,
        "cannonical_name": null
    },
    "model": "dataentry.vdc",
    "pk": 117
},
{
    "fields": {
        "verified": true,
        "name": "Jaluke",
        "district": 2,
        "longitude": 82.8792358988,
        "latitude": 27.8629986815,
        "cannonical_name": 117
    },
    "model": "dataentry.vdc",
    "pk": 118
},
{
    "fields": {
        "verified": true,
        "name": "Keemadada",
        "district": 2,
        "longitude": 83.0835417894,
        "latitude": 27.9932996099,
        "cannonical_name": null
    },
    "model": "dataentry.vdc",
    "pk": 119
},
{
    "fields": {
        "verified": true,
        "name": "Keemdada",
        "district": 2,
        "longitude": 83.0835417894,
        "latitude": 27.9932996099,
        "cannonical_name": 119
    },
    "model": "dataentry.vdc",
    "pk": 120
},
{
    "fields": {
        "verified": true,
        "name": "Kerunga",
        "district": 2,
        "longitude": 83.2324216295,
        "latitude": 27.9749692456,
        "cannonical_name": null
    },
    "model": "dataentry.vdc",
    "pk": 121
},
{
    "fields": {
        "verified": true,
        "name": "Khan",
        "district": 2,
        "longitude": 83.1414533132,
        "latitude": 28.0374788947,
        "cannonical_name": null
    },
    "model": "dataentry.vdc",
    "pk": 122
},
{
    "fields": {
        "verified": true,
        "name": "Khana",
        "district": 2,
        "longitude": 83.1414533132,
        "latitude": 28.0374788947,
        "cannonical_name": 122
    },
    "model": "dataentry.vdc",
    "pk": 123
},
{
    "fields": {
        "verified": true,
        "name": "Khanchikot",
        "district": 2,
        "longitude": 83.1354260409,
        "latitude": 27.9257568778,
        "cannonical_name": null
    },
    "model": "dataentry.vdc",
    "pk": 124
},
{
    "fields": {
        "verified": true,
        "name": "Khandaha",
        "district": 2,
        "longitude": 83.1266026113,
        "latitude": 28.063389952,
        "cannonical_name": null
    },
    "model": "dataentry.vdc",
    "pk": 125
},
{
    "fields": {
        "verified": true,
        "name": "Khidim",
        "district": 2,
        "longitude": 83.2832495548,
        "latitude": 27.9087935238,
        "cannonical_name": null
    },
    "model": "dataentry.vdc",
    "pk": 126
},
{
    "fields": {
        "verified": true,
        "name": "Khilji",
        "district": 2,
        "longitude": 83.0282400125,
        "latitude": 27.9841654962,
        "cannonical_name": null
    },
    "model": "dataentry.vdc",
    "pk": 127
},
{
    "fields": {
        "verified": true,
        "name": "Maidan",
        "district": 2,
        "longitude": 83.2288798303,
        "latitude": 27.8684045855,
        "cannonical_name": null
    },
    "model": "dataentry.vdc",
    "pk": 128
},
{
    "fields": {
        "verified": true,
        "name": "Mareng",
        "district": 2,
        "longitude": 83.1876831133,
        "latitude": 28.0625200364,
        "cannonical_name": null
    },
    "model": "dataentry.vdc",
    "pk": 129
},
{
    "fields": {
        "verified": true,
        "name": "Narapani",
        "district": 2,
        "longitude": 83.1640711186,
        "latitude": 27.9243277308,
        "cannonical_name": null
    },
    "model": "dataentry.vdc",
    "pk": 130
},
{
    "fields": {
        "verified": true,
        "name": "Narpani",
        "district": 2,
        "longitude": 83.1640711186,
        "latitude": 27.9243277308,
        "cannonical_name": 130
    },
    "model": "dataentry.vdc",
    "pk": 131
},
{
    "fields": {
        "verified": true,
        "name": "Nuwakot",
        "district": 2,
        "longitude": 83.0571336375,
        "latitude": 27.9658351319,
        "cannonical_name": null
    },
    "model": "dataentry.vdc",
    "pk": 132
},
{
    "fields": {
        "verified": true,
        "name": "Pali",
        "district": 2,
        "longitude": 83.2348449658,
        "latitude": 27.9430930529,
        "cannonical_name": null
    },
    "model": "dataentry.vdc",
    "pk": 133
},
{
    "fields": {
        "verified": true,
        "name": "Pathauti",
        "district": 2,
        "longitude": 83.2588919182,
        "latitude": 27.8610724398,
        "cannonical_name": null
    },
    "model": "dataentry.vdc",
    "pk": 134
},
{
    "fields": {
        "verified": true,
        "name": "Patauti",
        "district": 2,
        "longitude": 83.2588919182,
        "latitude": 27.8610724398,
        "cannonical_name": 134
    },
    "model": "dataentry.vdc",
    "pk": 135
},
{
    "fields": {
        "verified": true,
        "name": "Pathona",
        "district": 2,
        "longitude": 83.3079178756,
        "latitude": 27.874369721,
        "cannonical_name": null
    },
    "model": "dataentry.vdc",
    "pk": 136
},
{
    "fields": {
        "verified": true,
        "name": "Panena",
        "district": 2,
        "longitude": 83.3079178756,
        "latitude": 27.874369721,
        "cannonical_name": 136
    },
    "model": "dataentry.vdc",
    "pk": 137
},
{
    "fields": {
        "verified": true,
        "name": "Pokharathok",
        "district": 2,
        "longitude": 83.2811369027,
        "latitude": 27.861010303,
        "cannonical_name": null
    },
    "model": "dataentry.vdc",
    "pk": 138
},
{
    "fields": {
        "verified": true,
        "name": "Sandhikharka",
        "district": 2,
        "longitude": 83.130330821,
        "latitude": 27.9756527508,
        "cannonical_name": null
    },
    "model": "dataentry.vdc",
    "pk": 139
},
{
    "fields": {
        "verified": true,
        "name": "Siddhara",
        "district": 2,
        "longitude": 82.9140325225,
        "latitude": 27.8413129285,
        "cannonical_name": null
    },
    "model": "dataentry.vdc",
    "pk": 140
},
{
    "fields": {
        "verified": true,
        "name": "Simalapani",
        "district": 2,
        "longitude": 83.1843277246,
        "latitude": 27.7935297077,
        "cannonical_name": null
    },
    "model": "dataentry.vdc",
    "pk": 141
},
{
    "fields": {
        "verified": true,
        "name": "Simalpani",
        "district": 2,
        "longitude": 83.1843277246,
        "latitude": 27.7935297077,
        "cannonical_name": 141
    },
    "model": "dataentry.vdc",
    "pk": 142
},
{
    "fields": {
        "verified": true,
        "name": "Sitapur",
        "district": 2,
        "longitude": 83.1363580933,
        "latitude": 27.8730648476,
        "cannonical_name": null
    },
    "model": "dataentry.vdc",
    "pk": 143
},
{
    "fields": {
        "verified": true,
        "name": "Subarnakhal",
        "district": 2,
        "longitude": 83.1761256632,
        "latitude": 27.8606996188,
        "cannonical_name": null
    },
    "model": "dataentry.vdc",
    "pk": 144
},
{
    "fields": {
        "verified": true,
        "name": "Thada",
        "district": 2,
        "longitude": 83.0796893061,
        "latitude": 27.8355342035,
        "cannonical_name": null
    },
    "model": "dataentry.vdc",
    "pk": 145
},
{
    "fields": {
        "verified": true,
        "name": "Thulapokhara",
        "district": 2,
        "longitude": 83.1961958587,
        "latitude": 28.0036764602,
        "cannonical_name": null
    },
    "model": "dataentry.vdc",
    "pk": 146
},
{
    "fields": {
        "verified": true,
        "name": "Akhikarichaur",
        "district": 3,
        "longitude": 83.2599482443,
        "latitude": 28.3982453184,
        "cannonical_name": null
    },
    "model": "dataentry.vdc",
    "pk": 147
},
{
    "fields": {
        "verified": true,
        "name": "Amalachaur",
        "district": 3,
        "longitude": 83.635192549,
        "latitude": 28.2030735415,
        "cannonical_name": null
    },
    "model": "dataentry.vdc",
    "pk": 148
},
{
    "fields": {
        "verified": true,
        "name": "Amarbhumi",
        "district": 3,
        "longitude": 83.3956550768,
        "latitude": 28.2811795343,
        "cannonical_name": null
    },
    "model": "dataentry.vdc",
    "pk": 149
},
{
    "fields": {
        "verified": true,
        "name": "Andheri (Narayanstha",
        "district": 3,
        "longitude": 83.6673172891,
        "latitude": 28.2148795388,
        "cannonical_name": null
    },
    "model": "dataentry.vdc",
    "pk": 150
},
{
    "fields": {
        "verified": true,
        "name": "Narayansthan",
        "district": 3,
        "longitude": 83.6673172891,
        "latitude": 28.2148795388,
        "cannonical_name": 150
    },
    "model": "dataentry.vdc",
    "pk": 151
},
{
    "fields": {
        "verified": true,
        "name": "Argal",
        "district": 3,
        "longitude": 83.2126621181,
        "latitude": 28.2911214268,
        "cannonical_name": null
    },
    "model": "dataentry.vdc",
    "pk": 152
},
{
    "fields": {
        "verified": true,
        "name": "Arjewa",
        "district": 3,
        "longitude": 83.0437120827,
        "latitude": 28.5004604006,
        "cannonical_name": null
    },
    "model": "dataentry.vdc",
    "pk": 153
},
{
    "fields": {
        "verified": true,
        "name": "Batakachaur",
        "district": 3,
        "longitude": 83.4643162718,
        "latitude": 28.1500086903,
        "cannonical_name": null
    },
    "model": "dataentry.vdc",
    "pk": 154
},
{
    "fields": {
        "verified": true,
        "name": "Bhakunde",
        "district": 3,
        "longitude": 83.5107324824,
        "latitude": 28.2266233993,
        "cannonical_name": null
    },
    "model": "dataentry.vdc",
    "pk": 155
},
{
    "fields": {
        "verified": true,
        "name": "Bhimpokhara",
        "district": 3,
        "longitude": 83.4575433575,
        "latitude": 28.2795639768,
        "cannonical_name": null
    },
    "model": "dataentry.vdc",
    "pk": 156
},
{
    "fields": {
        "verified": true,
        "name": "Bhinggithe",
        "district": 3,
        "longitude": 83.1310764629,
        "latitude": 28.2985778462,
        "cannonical_name": null
    },
    "model": "dataentry.vdc",
    "pk": 157
},
{
    "fields": {
        "verified": true,
        "name": "Bihunkot",
        "district": 3,
        "longitude": 83.5829976134,
        "latitude": 28.2429653851,
        "cannonical_name": null
    },
    "model": "dataentry.vdc",
    "pk": 158
},
{
    "fields": {
        "verified": true,
        "name": "Binamare",
        "district": 3,
        "longitude": 83.6248156987,
        "latitude": 28.1646108449,
        "cannonical_name": null
    },
    "model": "dataentry.vdc",
    "pk": 159
},
{
    "fields": {
        "verified": true,
        "name": "Boharagaun",
        "district": 3,
        "longitude": 83.2427984798,
        "latitude": 28.3549359492,
        "cannonical_name": null
    },
    "model": "dataentry.vdc",
    "pk": 160
},
{
    "fields": {
        "verified": true,
        "name": "Bongadovan",
        "district": 3,
        "longitude": 83.1225015806,
        "latitude": 28.4184397875,
        "cannonical_name": null
    },
    "model": "dataentry.vdc",
    "pk": 161
},
{
    "fields": {
        "verified": true,
        "name": "Bowang",
        "district": 3,
        "longitude": 82.9675944683,
        "latitude": 28.4592636836,
        "cannonical_name": null
    },
    "model": "dataentry.vdc",
    "pk": 162
},
{
    "fields": {
        "verified": true,
        "name": "Burtiwang",
        "district": 3,
        "longitude": 83.3743421448,
        "latitude": 28.3320074597,
        "cannonical_name": null
    },
    "model": "dataentry.vdc",
    "pk": 163
},
{
    "fields": {
        "verified": true,
        "name": "Chhisti",
        "district": 3,
        "longitude": 83.6026328511,
        "latitude": 28.1311812314,
        "cannonical_name": null
    },
    "model": "dataentry.vdc",
    "pk": 164
},
{
    "fields": {
        "verified": true,
        "name": "Dagatundada",
        "district": 3,
        "longitude": 83.6121397858,
        "latitude": 28.2383672598,
        "cannonical_name": null
    },
    "model": "dataentry.vdc",
    "pk": 165
},
{
    "fields": {
        "verified": true,
        "name": "Damek",
        "district": 3,
        "longitude": 83.5624924601,
        "latitude": 28.1930695121,
        "cannonical_name": null
    },
    "model": "dataentry.vdc",
    "pk": 166
},
{
    "fields": {
        "verified": true,
        "name": "Darling",
        "district": 3,
        "longitude": 83.587098644,
        "latitude": 28.2768299564,
        "cannonical_name": null
    },
    "model": "dataentry.vdc",
    "pk": 167
},
{
    "fields": {
        "verified": true,
        "name": "Dhamja",
        "district": 3,
        "longitude": 83.5659721225,
        "latitude": 28.3047293922,
        "cannonical_name": null
    },
    "model": "dataentry.vdc",
    "pk": 168
},
{
    "fields": {
        "verified": true,
        "name": "Dhudhilabhati",
        "district": 3,
        "longitude": 83.4843864673,
        "latitude": 28.2063046565,
        "cannonical_name": null
    },
    "model": "dataentry.vdc",
    "pk": 169
},
{
    "fields": {
        "verified": true,
        "name": "Dhullubaskot",
        "district": 3,
        "longitude": 83.535090119,
        "latitude": 28.1455348387,
        "cannonical_name": null
    },
    "model": "dataentry.vdc",
    "pk": 170
},
{
    "fields": {
        "verified": true,
        "name": "DhulluGaidi",
        "district": 3,
        "longitude": 83.6210253522,
        "latitude": 28.1456591123,
        "cannonical_name": null
    },
    "model": "dataentry.vdc",
    "pk": 171
},
{
    "fields": {
        "verified": true,
        "name": "Dhullu Gaidi",
        "district": 3,
        "longitude": 83.6210253522,
        "latitude": 28.1456591123,
        "cannonical_name": 171
    },
    "model": "dataentry.vdc",
    "pk": 172
},
{
    "fields": {
        "verified": true,
        "name": "Gwalichaur",
        "district": 3,
        "longitude": 83.283560239,
        "latitude": 28.2500489835,
        "cannonical_name": null
    },
    "model": "dataentry.vdc",
    "pk": 173
},
{
    "fields": {
        "verified": true,
        "name": "Harichaur",
        "district": 3,
        "longitude": 83.5066935885,
        "latitude": 28.2459479528,
        "cannonical_name": null
    },
    "model": "dataentry.vdc",
    "pk": 174
},
{
    "fields": {
        "verified": true,
        "name": "Hatiya",
        "district": 3,
        "longitude": 83.4359818782,
        "latitude": 28.1966113113,
        "cannonical_name": null
    },
    "model": "dataentry.vdc",
    "pk": 175
},
{
    "fields": {
        "verified": true,
        "name": "Heel",
        "district": 3,
        "longitude": 83.1409562186,
        "latitude": 28.2752765357,
        "cannonical_name": null
    },
    "model": "dataentry.vdc",
    "pk": 176
},
{
    "fields": {
        "verified": true,
        "name": "Hugdisheer",
        "district": 3,
        "longitude": 83.4946390439,
        "latitude": 28.145783386,
        "cannonical_name": null
    },
    "model": "dataentry.vdc",
    "pk": 177
},
{
    "fields": {
        "verified": true,
        "name": "Jaljala",
        "district": 3,
        "longitude": 83.4144825357,
        "latitude": 28.2423440168,
        "cannonical_name": null
    },
    "model": "dataentry.vdc",
    "pk": 178
},
{
    "fields": {
        "verified": true,
        "name": "KalikaN.P.",
        "district": 3,
        "longitude": 83.5504379155,
        "latitude": 28.2813659448,
        "cannonical_name": null
    },
    "model": "dataentry.vdc",
    "pk": 179
},
{
    "fields": {
        "verified": true,
        "name": "Baglung Municipality",
        "district": 3,
        "longitude": 83.5504379155,
        "latitude": 28.2813659448,
        "cannonical_name": 179
    },
    "model": "dataentry.vdc",
    "pk": 180
},
{
    "fields": {
        "verified": true,
        "name": "Kandebas",
        "district": 3,
        "longitude": 83.385091816,
        "latitude": 28.1862965979,
        "cannonical_name": null
    },
    "model": "dataentry.vdc",
    "pk": 181
},
{
    "fields": {
        "verified": true,
        "name": "Khunga",
        "district": 3,
        "longitude": 83.1044819005,
        "latitude": 28.3313860914,
        "cannonical_name": null
    },
    "model": "dataentry.vdc",
    "pk": 182
},
{
    "fields": {
        "verified": true,
        "name": "Kusmishera",
        "district": 3,
        "longitude": 83.6184156054,
        "latitude": 28.1980404584,
        "cannonical_name": null
    },
    "model": "dataentry.vdc",
    "pk": 183
},
{
    "fields": {
        "verified": true,
        "name": "Lekhani",
        "district": 3,
        "longitude": 83.6404120425,
        "latitude": 28.2276797254,
        "cannonical_name": null
    },
    "model": "dataentry.vdc",
    "pk": 184
},
{
    "fields": {
        "verified": true,
        "name": "Malikathota",
        "district": 3,
        "longitude": 83.5257695947,
        "latitude": 28.2912457005,
        "cannonical_name": null
    },
    "model": "dataentry.vdc",
    "pk": 185
},
{
    "fields": {
        "verified": true,
        "name": "Malika",
        "district": 3,
        "longitude": 83.5257695947,
        "latitude": 28.2912457005,
        "cannonical_name": 185
    },
    "model": "dataentry.vdc",
    "pk": 186
},
{
    "fields": {
        "verified": true,
        "name": "Malma",
        "district": 3,
        "longitude": 83.2744261252,
        "latitude": 28.2149416756,
        "cannonical_name": null
    },
    "model": "dataentry.vdc",
    "pk": 187
},
{
    "fields": {
        "verified": true,
        "name": "Narethanti",
        "district": 3,
        "longitude": 83.3813636063,
        "latitude": 28.2219010004,
        "cannonical_name": null
    },
    "model": "dataentry.vdc",
    "pk": 188
},
{
    "fields": {
        "verified": true,
        "name": "Nisi",
        "district": 3,
        "longitude": 83.2477072892,
        "latitude": 28.4669686502,
        "cannonical_name": null
    },
    "model": "dataentry.vdc",
    "pk": 189
},
{
    "fields": {
        "verified": true,
        "name": "Paiyunpata",
        "district": 3,
        "longitude": 83.4594074624,
        "latitude": 28.2312836614,
        "cannonical_name": null
    },
    "model": "dataentry.vdc",
    "pk": 190
},
{
    "fields": {
        "verified": true,
        "name": "Paiyunthanthap",
        "district": 3,
        "longitude": 83.5591370714,
        "latitude": 28.1715080328,
        "cannonical_name": null
    },
    "model": "dataentry.vdc",
    "pk": 191
},
{
    "fields": {
        "verified": true,
        "name": "Palakot",
        "district": 3,
        "longitude": 83.4923399813,
        "latitude": 28.2805581661,
        "cannonical_name": null
    },
    "model": "dataentry.vdc",
    "pk": 192
},
{
    "fields": {
        "verified": true,
        "name": "Pandavkhani",
        "district": 3,
        "longitude": 83.4506461696,
        "latitude": 28.2987021198,
        "cannonical_name": null
    },
    "model": "dataentry.vdc",
    "pk": 193
},
{
    "fields": {
        "verified": true,
        "name": "Rajkut",
        "district": 3,
        "longitude": 83.4966895592,
        "latitude": 28.3033002451,
        "cannonical_name": null
    },
    "model": "dataentry.vdc",
    "pk": 194
},
{
    "fields": {
        "verified": true,
        "name": "Ranasinkiteni",
        "district": 3,
        "longitude": 83.3331454278,
        "latitude": 28.2817387658,
        "cannonical_name": null
    },
    "model": "dataentry.vdc",
    "pk": 195
},
{
    "fields": {
        "verified": true,
        "name": "Rangkhani",
        "district": 3,
        "longitude": 83.5603176711,
        "latitude": 28.1437950075,
        "cannonical_name": null
    },
    "model": "dataentry.vdc",
    "pk": 196
},
{
    "fields": {
        "verified": true,
        "name": "Rayadanda",
        "district": 3,
        "longitude": 83.5769082042,
        "latitude": 28.2147552651,
        "cannonical_name": null
    },
    "model": "dataentry.vdc",
    "pk": 197
},
{
    "fields": {
        "verified": true,
        "name": "Resh",
        "district": 3,
        "longitude": 83.3067372758,
        "latitude": 28.235757513,
        "cannonical_name": null
    },
    "model": "dataentry.vdc",
    "pk": 198
},
{
    "fields": {
        "verified": true,
        "name": "Righa",
        "district": 3,
        "longitude": 83.3211530199,
        "latitude": 28.2109649186,
        "cannonical_name": null
    },
    "model": "dataentry.vdc",
    "pk": 199
},
{
    "fields": {
        "verified": true,
        "name": "Salyan",
        "district": 3,
        "longitude": 83.4320051212,
        "latitude": 28.1489523642,
        "cannonical_name": null
    },
    "model": "dataentry.vdc",
    "pk": 200
},
{
    "fields": {
        "verified": true,
        "name": "Sarkuwa",
        "district": 3,
        "longitude": 83.6046833664,
        "latitude": 28.1621253718,
        "cannonical_name": null
    },
    "model": "dataentry.vdc",
    "pk": 201
},
{
    "fields": {
        "verified": true,
        "name": "Singana",
        "district": 3,
        "longitude": 83.5400610652,
        "latitude": 28.2316564824,
        "cannonical_name": null
    },
    "model": "dataentry.vdc",
    "pk": 202
},
{
    "fields": {
        "verified": true,
        "name": "Sisakhani",
        "district": 3,
        "longitude": 83.58424035,
        "latitude": 28.106015816,
        "cannonical_name": null
    },
    "model": "dataentry.vdc",
    "pk": 203
},
{
    "fields": {
        "verified": true,
        "name": "Sukhaura",
        "district": 3,
        "longitude": 83.4211933131,
        "latitude": 28.1628088769,
        "cannonical_name": null
    },
    "model": "dataentry.vdc",
    "pk": 204
},
{
    "fields": {
        "verified": true,
        "name": "Sunkhani",
        "district": 3,
        "longitude": 83.2089960453,
        "latitude": 28.4368944255,
        "cannonical_name": null
    },
    "model": "dataentry.vdc",
    "pk": 205
},
{
    "fields": {
        "verified": true,
        "name": "Khungkhani",
        "district": 3,
        "longitude": 83.2089960453,
        "latitude": 28.4368944255,
        "cannonical_name": 205
    },
    "model": "dataentry.vdc",
    "pk": 206
},
{
    "fields": {
        "verified": true,
        "name": "Taman",
        "district": 3,
        "longitude": 83.0466325136,
        "latitude": 28.3627651896,
        "cannonical_name": null
    },
    "model": "dataentry.vdc",
    "pk": 207
},
{
    "fields": {
        "verified": true,
        "name": "Tangram",
        "district": 3,
        "longitude": 83.2395052279,
        "latitude": 28.2541500141,
        "cannonical_name": null
    },
    "model": "dataentry.vdc",
    "pk": 208
},
{
    "fields": {
        "verified": true,
        "name": "Tara",
        "district": 3,
        "longitude": 83.2780300613,
        "latitude": 28.3093275174,
        "cannonical_name": null
    },
    "model": "dataentry.vdc",
    "pk": 209
},
{
    "fields": {
        "verified": true,
        "name": "Tityang",
        "district": 3,
        "longitude": 83.5543525357,
        "latitude": 28.2423440168,
        "cannonical_name": null
    },
    "model": "dataentry.vdc",
    "pk": 210
},
{
    "fields": {
        "verified": true,
        "name": "Amchaur",
        "district": 4,
        "longitude": 80.3264064547,
        "latitude": 29.4512160067,
        "cannonical_name": null
    },
    "model": "dataentry.vdc",
    "pk": 211
},
{
    "fields": {
        "verified": true,
        "name": "Basantapur",
        "district": 4,
        "longitude": 80.4972205951,
        "latitude": 29.4658802981,
        "cannonical_name": null
    },
    "model": "dataentry.vdc",
    "pk": 212
},
{
    "fields": {
        "verified": true,
        "name": "Basuling",
        "district": 4,
        "longitude": 80.5428911637,
        "latitude": 29.5255937899,
        "cannonical_name": null
    },
    "model": "dataentry.vdc",
    "pk": 213
},
{
    "fields": {
        "verified": true,
        "name": "Bhatana",
        "district": 4,
        "longitude": 80.7549641579,
        "latitude": 29.6247020307,
        "cannonical_name": null
    },
    "model": "dataentry.vdc",
    "pk": 214
},
{
    "fields": {
        "verified": true,
        "name": "Bhumeswor",
        "district": 4,
        "longitude": 80.5399085959,
        "latitude": 29.4955195651,
        "cannonical_name": null
    },
    "model": "dataentry.vdc",
    "pk": 215
},
{
    "fields": {
        "verified": true,
        "name": "Bijayapur",
        "district": 4,
        "longitude": 80.6192573254,
        "latitude": 29.5662934123,
        "cannonical_name": null
    },
    "model": "dataentry.vdc",
    "pk": 216
},
{
    "fields": {
        "verified": true,
        "name": "Bilashpur",
        "district": 4,
        "longitude": 80.3964967968,
        "latitude": 29.3744148872,
        "cannonical_name": null
    },
    "model": "dataentry.vdc",
    "pk": 217
},
{
    "fields": {
        "verified": true,
        "name": "Bisalpur",
        "district": 4,
        "longitude": 80.3964967968,
        "latitude": 29.3744148872,
        "cannonical_name": 217
    },
    "model": "dataentry.vdc",
    "pk": 218
},
{
    "fields": {
        "verified": true,
        "name": "Bumiraj",
        "district": 4,
        "longitude": 80.7450222654,
        "latitude": 29.5582777615,
        "cannonical_name": null
    },
    "model": "dataentry.vdc",
    "pk": 219
},
{
    "fields": {
        "verified": true,
        "name": "Chaukham",
        "district": 4,
        "longitude": 80.7523544111,
        "latitude": 29.5053993208,
        "cannonical_name": null
    },
    "model": "dataentry.vdc",
    "pk": 220
},
{
    "fields": {
        "verified": true,
        "name": "DasharathchandaN.P.",
        "district": 4,
        "longitude": 80.403642532,
        "latitude": 29.5739362421,
        "cannonical_name": null
    },
    "model": "dataentry.vdc",
    "pk": 221
},
{
    "fields": {
        "verified": true,
        "name": "Dasharathchanda Municipality",
        "district": 4,
        "longitude": 80.403642532,
        "latitude": 29.5739362421,
        "cannonical_name": 221
    },
    "model": "dataentry.vdc",
    "pk": 222
},
{
    "fields": {
        "verified": true,
        "name": "Dehimandau",
        "district": 4,
        "longitude": 80.4654065391,
        "latitude": 29.5195665176,
        "cannonical_name": null
    },
    "model": "dataentry.vdc",
    "pk": 223
},
{
    "fields": {
        "verified": true,
        "name": "Deulek",
        "district": 4,
        "longitude": 80.5161101908,
        "latitude": 29.5923287432,
        "cannonical_name": null
    },
    "model": "dataentry.vdc",
    "pk": 224
},
{
    "fields": {
        "verified": true,
        "name": "Dhikarim/Rim",
        "district": 4,
        "longitude": 80.5700449576,
        "latitude": 29.6180533901,
        "cannonical_name": null
    },
    "model": "dataentry.vdc",
    "pk": 225
},
{
    "fields": {
        "verified": true,
        "name": "Dhikasintad/Sitad",
        "district": 4,
        "longitude": 80.5137489913,
        "latitude": 29.613020307,
        "cannonical_name": null
    },
    "model": "dataentry.vdc",
    "pk": 226
},
{
    "fields": {
        "verified": true,
        "name": "Dhungad",
        "district": 4,
        "longitude": 80.8129378184,
        "latitude": 29.387525758,
        "cannonical_name": null
    },
    "model": "dataentry.vdc",
    "pk": 227
},
{
    "fields": {
        "verified": true,
        "name": "Dilasaini",
        "district": 4,
        "longitude": 80.5992492667,
        "latitude": 29.6526636033,
        "cannonical_name": null
    },
    "model": "dataentry.vdc",
    "pk": 228
},
{
    "fields": {
        "verified": true,
        "name": "DurgaBhabani",
        "district": 4,
        "longitude": 80.4622996977,
        "latitude": 29.5608875082,
        "cannonical_name": null
    },
    "model": "dataentry.vdc",
    "pk": 229
},
{
    "fields": {
        "verified": true,
        "name": "Durga Bhabani",
        "district": 4,
        "longitude": 80.4622996977,
        "latitude": 29.5608875082,
        "cannonical_name": 229
    },
    "model": "dataentry.vdc",
    "pk": 230
},
{
    "fields": {
        "verified": true,
        "name": "Durgasthan",
        "district": 4,
        "longitude": 80.4519849842,
        "latitude": 29.4709133812,
        "cannonical_name": null
    },
    "model": "dataentry.vdc",
    "pk": 231
},
{
    "fields": {
        "verified": true,
        "name": "Gajari",
        "district": 4,
        "longitude": 80.7240821543,
        "latitude": 29.4610336256,
        "cannonical_name": null
    },
    "model": "dataentry.vdc",
    "pk": 232
},
{
    "fields": {
        "verified": true,
        "name": "Giregada",
        "district": 4,
        "longitude": 80.3668575298,
        "latitude": 29.4965137544,
        "cannonical_name": null
    },
    "model": "dataentry.vdc",
    "pk": 233
},
{
    "fields": {
        "verified": true,
        "name": "Gokuleswor",
        "district": 4,
        "longitude": 80.5432018478,
        "latitude": 29.6519800982,
        "cannonical_name": null
    },
    "model": "dataentry.vdc",
    "pk": 234
},
{
    "fields": {
        "verified": true,
        "name": "Gujar",
        "district": 4,
        "longitude": 80.5852684804,
        "latitude": 29.4831543363,
        "cannonical_name": null
    },
    "model": "dataentry.vdc",
    "pk": 235
},
{
    "fields": {
        "verified": true,
        "name": "Gurukhola",
        "district": 4,
        "longitude": 80.4916282805,
        "latitude": 29.5150305291,
        "cannonical_name": null
    },
    "model": "dataentry.vdc",
    "pk": 236
},
{
    "fields": {
        "verified": true,
        "name": "Gwallek",
        "district": 4,
        "longitude": 80.4278758949,
        "latitude": 29.5116130036,
        "cannonical_name": null
    },
    "model": "dataentry.vdc",
    "pk": 237
},
{
    "fields": {
        "verified": true,
        "name": "Hat",
        "district": 4,
        "longitude": 80.6961205817,
        "latitude": 29.6129581702,
        "cannonical_name": null
    },
    "model": "dataentry.vdc",
    "pk": 238
},
{
    "fields": {
        "verified": true,
        "name": "Hatraj",
        "district": 4,
        "longitude": 80.5025022254,
        "latitude": 29.550137837,
        "cannonical_name": null
    },
    "model": "dataentry.vdc",
    "pk": 239
},
{
    "fields": {
        "verified": true,
        "name": "Hatairaj",
        "district": 4,
        "longitude": 80.5025022254,
        "latitude": 29.550137837,
        "cannonical_name": 239
    },
    "model": "dataentry.vdc",
    "pk": 240
},
{
    "fields": {
        "verified": true,
        "name": "Kaipal",
        "district": 4,
        "longitude": 80.5050498354,
        "latitude": 29.4042405647,
        "cannonical_name": null
    },
    "model": "dataentry.vdc",
    "pk": 241
},
{
    "fields": {
        "verified": true,
        "name": "Kailpal",
        "district": 4,
        "longitude": 80.5050498354,
        "latitude": 29.4042405647,
        "cannonical_name": 241
    },
    "model": "dataentry.vdc",
    "pk": 242
},
{
    "fields": {
        "verified": true,
        "name": "Kataujpani",
        "district": 4,
        "longitude": 80.5820995022,
        "latitude": 29.5844995029,
        "cannonical_name": null
    },
    "model": "dataentry.vdc",
    "pk": 243
},
{
    "fields": {
        "verified": true,
        "name": "Kotila",
        "district": 4,
        "longitude": 80.7073052107,
        "latitude": 29.5715750427,
        "cannonical_name": null
    },
    "model": "dataentry.vdc",
    "pk": 244
},
{
    "fields": {
        "verified": true,
        "name": "Kotpetara",
        "district": 4,
        "longitude": 80.7327813102,
        "latitude": 29.6849747539,
        "cannonical_name": null
    },
    "model": "dataentry.vdc",
    "pk": 245
},
{
    "fields": {
        "verified": true,
        "name": "Kulau",
        "district": 4,
        "longitude": 80.3213112348,
        "latitude": 29.4118212577,
        "cannonical_name": null
    },
    "model": "dataentry.vdc",
    "pk": 246
},
{
    "fields": {
        "verified": true,
        "name": "Kuwakot",
        "district": 4,
        "longitude": 80.7534107372,
        "latitude": 29.5904025016,
        "cannonical_name": null
    },
    "model": "dataentry.vdc",
    "pk": 247
},
{
    "fields": {
        "verified": true,
        "name": "Mahadevsthan",
        "district": 4,
        "longitude": 80.6856194577,
        "latitude": 29.6463256468,
        "cannonical_name": null
    },
    "model": "dataentry.vdc",
    "pk": 248
},
{
    "fields": {
        "verified": true,
        "name": "Mahakali",
        "district": 4,
        "longitude": 80.301365313,
        "latitude": 29.3894519996,
        "cannonical_name": null
    },
    "model": "dataentry.vdc",
    "pk": 249
},
{
    "fields": {
        "verified": true,
        "name": "Maharudra",
        "district": 4,
        "longitude": 80.4158834871,
        "latitude": 29.4365517153,
        "cannonical_name": null
    },
    "model": "dataentry.vdc",
    "pk": 250
},
{
    "fields": {
        "verified": true,
        "name": "Malladehi",
        "district": 4,
        "longitude": 80.6691531983,
        "latitude": 29.5822625771,
        "cannonical_name": null
    },
    "model": "dataentry.vdc",
    "pk": 251
},
{
    "fields": {
        "verified": true,
        "name": "Mathairaj",
        "district": 4,
        "longitude": 80.6440499198,
        "latitude": 29.636880849,
        "cannonical_name": null
    },
    "model": "dataentry.vdc",
    "pk": 252
},
{
    "fields": {
        "verified": true,
        "name": "Maunali",
        "district": 4,
        "longitude": 80.5588603285,
        "latitude": 29.5345414931,
        "cannonical_name": null
    },
    "model": "dataentry.vdc",
    "pk": 253
},
{
    "fields": {
        "verified": true,
        "name": "Melauli",
        "district": 4,
        "longitude": 80.434710946,
        "latitude": 29.4129397206,
        "cannonical_name": null
    },
    "model": "dataentry.vdc",
    "pk": 254
},
{
    "fields": {
        "verified": true,
        "name": "Nagarjun",
        "district": 4,
        "longitude": 80.3782907062,
        "latitude": 29.5173295918,
        "cannonical_name": null
    },
    "model": "dataentry.vdc",
    "pk": 255
},
{
    "fields": {
        "verified": true,
        "name": "Nwadeu",
        "district": 4,
        "longitude": 80.7384978984,
        "latitude": 29.6429702581,
        "cannonical_name": null
    },
    "model": "dataentry.vdc",
    "pk": 256
},
{
    "fields": {
        "verified": true,
        "name": "Nwali",
        "district": 4,
        "longitude": 80.4718687692,
        "latitude": 29.6048803825,
        "cannonical_name": null
    },
    "model": "dataentry.vdc",
    "pk": 257
},
{
    "fields": {
        "verified": true,
        "name": "Pancheswor",
        "district": 4,
        "longitude": 80.2723474143,
        "latitude": 29.4269205069,
        "cannonical_name": null
    },
    "model": "dataentry.vdc",
    "pk": 258
},
{
    "fields": {
        "verified": true,
        "name": "Patan",
        "district": 4,
        "longitude": 80.5566234027,
        "latitude": 29.4640783301,
        "cannonical_name": null
    },
    "model": "dataentry.vdc",
    "pk": 259
},
{
    "fields": {
        "verified": true,
        "name": "Raudidewal",
        "district": 4,
        "longitude": 80.3664847088,
        "latitude": 29.4714726127,
        "cannonical_name": null
    },
    "model": "dataentry.vdc",
    "pk": 260
},
{
    "fields": {
        "verified": true,
        "name": "Rauleswor",
        "district": 4,
        "longitude": 80.602045424,
        "latitude": 29.5180130969,
        "cannonical_name": null
    },
    "model": "dataentry.vdc",
    "pk": 261
},
{
    "fields": {
        "verified": true,
        "name": "Rudreswor",
        "district": 4,
        "longitude": 80.6267137447,
        "latitude": 29.67192602,
        "cannonical_name": null
    },
    "model": "dataentry.vdc",
    "pk": 262
},
{
    "fields": {
        "verified": true,
        "name": "Sakar",
        "district": 4,
        "longitude": 80.5174150642,
        "latitude": 29.4342526527,
        "cannonical_name": null
    },
    "model": "dataentry.vdc",
    "pk": 263
},
{
    "fields": {
        "verified": true,
        "name": "Salena",
        "district": 4,
        "longitude": 80.4445907017,
        "latitude": 29.4505946384,
        "cannonical_name": null
    },
    "model": "dataentry.vdc",
    "pk": 264
},
{
    "fields": {
        "verified": true,
        "name": "Sarmali",
        "district": 4,
        "longitude": 80.3144761837,
        "latitude": 29.3476339143,
        "cannonical_name": null
    },
    "model": "dataentry.vdc",
    "pk": 265
},
{
    "fields": {
        "verified": true,
        "name": "Shankarpur",
        "district": 4,
        "longitude": 80.6411294889,
        "latitude": 29.5186344652,
        "cannonical_name": null
    },
    "model": "dataentry.vdc",
    "pk": 266
},
{
    "fields": {
        "verified": true,
        "name": "Shibanath",
        "district": 4,
        "longitude": 80.3713313814,
        "latitude": 29.4233165709,
        "cannonical_name": null
    },
    "model": "dataentry.vdc",
    "pk": 267
},
{
    "fields": {
        "verified": true,
        "name": "Shikharpur",
        "district": 4,
        "longitude": 80.6781630384,
        "latitude": 29.510743088,
        "cannonical_name": null
    },
    "model": "dataentry.vdc",
    "pk": 268
},
{
    "fields": {
        "verified": true,
        "name": "Shivaling",
        "district": 4,
        "longitude": 80.8385381916,
        "latitude": 29.4637055092,
        "cannonical_name": null
    },
    "model": "dataentry.vdc",
    "pk": 269
},
{
    "fields": {
        "verified": true,
        "name": "Siddhapur",
        "district": 4,
        "longitude": 80.6715143978,
        "latitude": 29.4172892986,
        "cannonical_name": null
    },
    "model": "dataentry.vdc",
    "pk": 270
},
{
    "fields": {
        "verified": true,
        "name": "Sikash",
        "district": 4,
        "longitude": 80.7504281694,
        "latitude": 29.4285360645,
        "cannonical_name": null
    },
    "model": "dataentry.vdc",
    "pk": 271
},
{
    "fields": {
        "verified": true,
        "name": "Sigash",
        "district": 4,
        "longitude": 80.7504281694,
        "latitude": 29.4285360645,
        "cannonical_name": 271
    },
    "model": "dataentry.vdc",
    "pk": 272
},
{
    "fields": {
        "verified": true,
        "name": "Silanga",
        "district": 4,
        "longitude": 80.5822237759,
        "latitude": 29.4262991387,
        "cannonical_name": null
    },
    "model": "dataentry.vdc",
    "pk": 273
},
{
    "fields": {
        "verified": true,
        "name": "SreeKedar",
        "district": 4,
        "longitude": 80.4657172232,
        "latitude": 29.5838781346,
        "cannonical_name": null
    },
    "model": "dataentry.vdc",
    "pk": 274
},
{
    "fields": {
        "verified": true,
        "name": "Sree Kedar",
        "district": 4,
        "longitude": 80.4657172232,
        "latitude": 29.5838781346,
        "cannonical_name": 274
    },
    "model": "dataentry.vdc",
    "pk": 275
},
{
    "fields": {
        "verified": true,
        "name": "Sreekot",
        "district": 4,
        "longitude": 80.5246229362,
        "latitude": 29.5641186233,
        "cannonical_name": null
    },
    "model": "dataentry.vdc",
    "pk": 276
},
{
    "fields": {
        "verified": true,
        "name": "Talladehi",
        "district": 4,
        "longitude": 80.6324303329,
        "latitude": 29.6028298672,
        "cannonical_name": null
    },
    "model": "dataentry.vdc",
    "pk": 277
},
{
    "fields": {
        "verified": true,
        "name": "Thalakanda",
        "district": 4,
        "longitude": 80.833318698,
        "latitude": 29.4164815198,
        "cannonical_name": null
    },
    "model": "dataentry.vdc",
    "pk": 278
},
{
    "fields": {
        "verified": true,
        "name": "Udayadeb",
        "district": 4,
        "longitude": 80.3572263214,
        "latitude": 29.3646594052,
        "cannonical_name": null
    },
    "model": "dataentry.vdc",
    "pk": 279
},
{
    "fields": {
        "verified": true,
        "name": "Banjh",
        "district": 5,
        "longitude": 80.8952691156,
        "latitude": 29.5283278103,
        "cannonical_name": null
    },
    "model": "dataentry.vdc",
    "pk": 280
},
{
    "fields": {
        "verified": true,
        "name": "Bhairabanath",
        "district": 5,
        "longitude": 80.9788431494,
        "latitude": 29.5026031635,
        "cannonical_name": null
    },
    "model": "dataentry.vdc",
    "pk": 281
},
{
    "fields": {
        "verified": true,
        "name": "Bhamchaur",
        "district": 5,
        "longitude": 80.9348502751,
        "latitude": 29.5466581746,
        "cannonical_name": null
    },
    "model": "dataentry.vdc",
    "pk": 282
},
{
    "fields": {
        "verified": true,
        "name": "Bhatekhola",
        "district": 5,
        "longitude": 81.2524316033,
        "latitude": 29.5715750427,
        "cannonical_name": null
    },
    "model": "dataentry.vdc",
    "pk": 283
},
{
    "fields": {
        "verified": true,
        "name": "Byasi",
        "district": 5,
        "longitude": 81.0660211191,
        "latitude": 29.5525611733,
        "cannonical_name": null
    },
    "model": "dataentry.vdc",
    "pk": 284
},
{
    "fields": {
        "verified": true,
        "name": "Chainpur",
        "district": 5,
        "longitude": 81.1972541,
        "latitude": 29.5898432701,
        "cannonical_name": null
    },
    "model": "dataentry.vdc",
    "pk": 285
},
{
    "fields": {
        "verified": true,
        "name": "Chaudhari",
        "district": 5,
        "longitude": 81.0344556105,
        "latitude": 29.5041565842,
        "cannonical_name": null
    },
    "model": "dataentry.vdc",
    "pk": 286
},
{
    "fields": {
        "verified": true,
        "name": "Dahabagar",
        "district": 5,
        "longitude": 80.9943152196,
        "latitude": 29.704796402,
        "cannonical_name": null
    },
    "model": "dataentry.vdc",
    "pk": 287
},
{
    "fields": {
        "verified": true,
        "name": "Dangaji",
        "district": 5,
        "longitude": 80.9519379028,
        "latitude": 29.4308972639,
        "cannonical_name": null
    },
    "model": "dataentry.vdc",
    "pk": 288
},
{
    "fields": {
        "verified": true,
        "name": "Dantola",
        "district": 5,
        "longitude": 81.3929229716,
        "latitude": 29.6119018441,
        "cannonical_name": null
    },
    "model": "dataentry.vdc",
    "pk": 289
},
{
    "fields": {
        "verified": true,
        "name": "Datola",
        "district": 5,
        "longitude": 81.3929229716,
        "latitude": 29.6119018441,
        "cannonical_name": 289
    },
    "model": "dataentry.vdc",
    "pk": 290
},
{
    "fields": {
        "verified": true,
        "name": "Daulichaur",
        "district": 5,
        "longitude": 81.1559952462,
        "latitude": 29.695786562,
        "cannonical_name": null
    },
    "model": "dataentry.vdc",
    "pk": 291
},
{
    "fields": {
        "verified": true,
        "name": "Deulekh",
        "district": 5,
        "longitude": 80.790692834,
        "latitude": 29.5372755136,
        "cannonical_name": 224
    },
    "model": "dataentry.vdc",
    "pk": 292
},
{
    "fields": {
        "verified": true,
        "name": "Deulikot",
        "district": 5,
        "longitude": 80.8149261969,
        "latitude": 29.5937578903,
        "cannonical_name": null
    },
    "model": "dataentry.vdc",
    "pk": 293
},
{
    "fields": {
        "verified": true,
        "name": "Dhamena",
        "district": 5,
        "longitude": 81.2303730294,
        "latitude": 29.7126877792,
        "cannonical_name": null
    },
    "model": "dataentry.vdc",
    "pk": 294
},
{
    "fields": {
        "verified": true,
        "name": "Gadaraya",
        "district": 5,
        "longitude": 81.2550413501,
        "latitude": 29.4453751449,
        "cannonical_name": null
    },
    "model": "dataentry.vdc",
    "pk": 295
},
{
    "fields": {
        "verified": true,
        "name": "Hemantabada",
        "district": 5,
        "longitude": 81.2114212968,
        "latitude": 29.5292598628,
        "cannonical_name": null
    },
    "model": "dataentry.vdc",
    "pk": 296
},
{
    "fields": {
        "verified": true,
        "name": "Kadel",
        "district": 5,
        "longitude": 81.0959089334,
        "latitude": 29.54616108,
        "cannonical_name": null
    },
    "model": "dataentry.vdc",
    "pk": 297
},
{
    "fields": {
        "verified": true,
        "name": "Kailash",
        "district": 5,
        "longitude": 81.264113327,
        "latitude": 29.5087547095,
        "cannonical_name": null
    },
    "model": "dataentry.vdc",
    "pk": 298
},
{
    "fields": {
        "verified": true,
        "name": "Kalukheti",
        "district": 5,
        "longitude": 81.1763139889,
        "latitude": 29.4410255669,
        "cannonical_name": null
    },
    "model": "dataentry.vdc",
    "pk": 299
},
{
    "fields": {
        "verified": true,
        "name": "Kanda",
        "district": 5,
        "longitude": 81.2846184803,
        "latitude": 29.8565345362,
        "cannonical_name": null
    },
    "model": "dataentry.vdc",
    "pk": 300
},
{
    "fields": {
        "verified": true,
        "name": "Kaphalaseri",
        "district": 5,
        "longitude": 80.851027694,
        "latitude": 29.6803144918,
        "cannonical_name": null
    },
    "model": "dataentry.vdc",
    "pk": 301
},
{
    "fields": {
        "verified": true,
        "name": "Khiratadi",
        "district": 5,
        "longitude": 80.88538936,
        "latitude": 29.5886626704,
        "cannonical_name": null
    },
    "model": "dataentry.vdc",
    "pk": 302
},
{
    "fields": {
        "verified": true,
        "name": "Koiralakot",
        "district": 5,
        "longitude": 81.0589996576,
        "latitude": 29.4537636167,
        "cannonical_name": null
    },
    "model": "dataentry.vdc",
    "pk": 303
},
{
    "fields": {
        "verified": true,
        "name": "Kotbhairab",
        "district": 5,
        "longitude": 81.0300438957,
        "latitude": 29.4494140387,
        "cannonical_name": null
    },
    "model": "dataentry.vdc",
    "pk": 304
},
{
    "fields": {
        "verified": true,
        "name": "Kot Bhairab",
        "district": 5,
        "longitude": 81.0300438957,
        "latitude": 29.4494140387,
        "cannonical_name": 304
    },
    "model": "dataentry.vdc",
    "pk": 305
},
{
    "fields": {
        "verified": true,
        "name": "Kotdewal",
        "district": 5,
        "longitude": 81.2634298219,
        "latitude": 29.5233568641,
        "cannonical_name": null
    },
    "model": "dataentry.vdc",
    "pk": 306
},
{
    "fields": {
        "verified": true,
        "name": "Lamatola",
        "district": 5,
        "longitude": 81.1508378894,
        "latitude": 29.4718454336,
        "cannonical_name": null
    },
    "model": "dataentry.vdc",
    "pk": 307
},
{
    "fields": {
        "verified": true,
        "name": "Lekhgau",
        "district": 5,
        "longitude": 81.0198534559,
        "latitude": 29.5791557357,
        "cannonical_name": null
    },
    "model": "dataentry.vdc",
    "pk": 308
},
{
    "fields": {
        "verified": true,
        "name": "Lekgau",
        "district": 5,
        "longitude": 81.0198534559,
        "latitude": 29.5791557357,
        "cannonical_name": 308
    },
    "model": "dataentry.vdc",
    "pk": 309
},
{
    "fields": {
        "verified": true,
        "name": "Luyanta",
        "district": 5,
        "longitude": 81.1872500707,
        "latitude": 29.5096867619,
        "cannonical_name": null
    },
    "model": "dataentry.vdc",
    "pk": 310
},
{
    "fields": {
        "verified": true,
        "name": "Majhigau",
        "district": 5,
        "longitude": 81.1612768766,
        "latitude": 29.4537014798,
        "cannonical_name": null
    },
    "model": "dataentry.vdc",
    "pk": 311
},
{
    "fields": {
        "verified": true,
        "name": "Malumela",
        "district": 5,
        "longitude": 81.0913108082,
        "latitude": 29.4844592097,
        "cannonical_name": null
    },
    "model": "dataentry.vdc",
    "pk": 312
},
{
    "fields": {
        "verified": true,
        "name": "Mashdev",
        "district": 5,
        "longitude": 81.3029488445,
        "latitude": 29.526277295,
        "cannonical_name": null
    },
    "model": "dataentry.vdc",
    "pk": 313
},
{
    "fields": {
        "verified": true,
        "name": "Masta",
        "district": 5,
        "longitude": 81.3029488445,
        "latitude": 29.526277295,
        "cannonical_name": 313
    },
    "model": "dataentry.vdc",
    "pk": 314
},
{
    "fields": {
        "verified": true,
        "name": "Matela",
        "district": 5,
        "longitude": 81.0925535447,
        "latitude": 29.5050264998,
        "cannonical_name": null
    },
    "model": "dataentry.vdc",
    "pk": 315
},
{
    "fields": {
        "verified": true,
        "name": "Maulali",
        "district": 5,
        "longitude": 81.0069911325,
        "latitude": 29.5026031635,
        "cannonical_name": null
    },
    "model": "dataentry.vdc",
    "pk": 316
},
{
    "fields": {
        "verified": true,
        "name": "Melbisauni",
        "district": 5,
        "longitude": 81.3366891422,
        "latitude": 29.6332769129,
        "cannonical_name": null
    },
    "model": "dataentry.vdc",
    "pk": 317
},
{
    "fields": {
        "verified": true,
        "name": "Parakatne",
        "district": 5,
        "longitude": 80.9877287158,
        "latitude": 29.4454994185,
        "cannonical_name": null
    },
    "model": "dataentry.vdc",
    "pk": 318
},
{
    "fields": {
        "verified": true,
        "name": "Patadewal",
        "district": 5,
        "longitude": 81.2059532559,
        "latitude": 29.4474256602,
        "cannonical_name": null
    },
    "model": "dataentry.vdc",
    "pk": 319
},
{
    "fields": {
        "verified": true,
        "name": "Pauwagadhi",
        "district": 5,
        "longitude": 81.0995750063,
        "latitude": 29.4433867664,
        "cannonical_name": null
    },
    "model": "dataentry.vdc",
    "pk": 320
},
{
    "fields": {
        "verified": true,
        "name": "Pipalkot",
        "district": 5,
        "longitude": 80.9004264724,
        "latitude": 29.6688191786,
        "cannonical_name": null
    },
    "model": "dataentry.vdc",
    "pk": 321
},
{
    "fields": {
        "verified": true,
        "name": "Rayal",
        "district": 5,
        "longitude": 80.9432387469,
        "latitude": 29.4839621151,
        "cannonical_name": null
    },
    "model": "dataentry.vdc",
    "pk": 322
},
{
    "fields": {
        "verified": true,
        "name": "Rilu",
        "district": 5,
        "longitude": 81.3103431271,
        "latitude": 29.5666662333,
        "cannonical_name": null
    },
    "model": "dataentry.vdc",
    "pk": 323
},
{
    "fields": {
        "verified": true,
        "name": "Rithapata",
        "district": 5,
        "longitude": 81.1575486669,
        "latitude": 29.5659827281,
        "cannonical_name": null
    },
    "model": "dataentry.vdc",
    "pk": 324
},
{
    "fields": {
        "verified": true,
        "name": "Sainpasela",
        "district": 5,
        "longitude": 80.9980434292,
        "latitude": 29.5536174994,
        "cannonical_name": null
    },
    "model": "dataentry.vdc",
    "pk": 325
},
{
    "fields": {
        "verified": true,
        "name": "Subeda",
        "district": 5,
        "longitude": 81.1420765967,
        "latitude": 29.5312482413,
        "cannonical_name": null
    },
    "model": "dataentry.vdc",
    "pk": 326
},
{
    "fields": {
        "verified": true,
        "name": "Sunikot",
        "district": 5,
        "longitude": 81.224345757,
        "latitude": 29.6097891919,
        "cannonical_name": null
    },
    "model": "dataentry.vdc",
    "pk": 327
},
{
    "fields": {
        "verified": true,
        "name": "Sunkuda",
        "district": 5,
        "longitude": 80.8661269433,
        "latitude": 29.4937175971,
        "cannonical_name": null
    },
    "model": "dataentry.vdc",
    "pk": 328
},
{
    "fields": {
        "verified": true,
        "name": "Surma",
        "district": 5,
        "longitude": 81.0684444554,
        "latitude": 29.6465741941,
        "cannonical_name": null
    },
    "model": "dataentry.vdc",
    "pk": 329
},
{
    "fields": {
        "verified": true,
        "name": "Syandi",
        "district": 5,
        "longitude": 80.8246816789,
        "latitude": 29.5305025993,
        "cannonical_name": null
    },
    "model": "dataentry.vdc",
    "pk": 330
},
{
    "fields": {
        "verified": true,
        "name": "Atichaur",
        "district": 6,
        "longitude": 81.365644904,
        "latitude": 29.4244971707,
        "cannonical_name": null
    },
    "model": "dataentry.vdc",
    "pk": 331
},
{
    "fields": {
        "verified": true,
        "name": "Baddhu",
        "district": 6,
        "longitude": 81.7344891154,
        "latitude": 29.527022937,
        "cannonical_name": null
    },
    "model": "dataentry.vdc",
    "pk": 332
},
{
    "fields": {
        "verified": true,
        "name": "Bai",
        "district": 6,
        "longitude": 81.758846752,
        "latitude": 29.4799853581,
        "cannonical_name": null
    },
    "model": "dataentry.vdc",
    "pk": 333
},
{
    "fields": {
        "verified": true,
        "name": "Barhabise",
        "district": 6,
        "longitude": 81.2899622475,
        "latitude": 29.3377541587,
        "cannonical_name": null
    },
    "model": "dataentry.vdc",
    "pk": 334
},
{
    "fields": {
        "verified": true,
        "name": "Barhabis",
        "district": 6,
        "longitude": 81.2899622475,
        "latitude": 29.3377541587,
        "cannonical_name": 334
    },
    "model": "dataentry.vdc",
    "pk": 335
},
{
    "fields": {
        "verified": true,
        "name": "Bichhaiyan",
        "district": 6,
        "longitude": 81.6543326072,
        "latitude": 29.7692322927,
        "cannonical_name": null
    },
    "model": "dataentry.vdc",
    "pk": 336
},
{
    "fields": {
        "verified": true,
        "name": "Bichhaiya",
        "district": 6,
        "longitude": 81.6543326072,
        "latitude": 29.7692322927,
        "cannonical_name": 336
    },
    "model": "dataentry.vdc",
    "pk": 337
},
{
    "fields": {
        "verified": true,
        "name": "Bramhatola",
        "district": 6,
        "longitude": 81.3682546508,
        "latitude": 29.3962870507,
        "cannonical_name": null
    },
    "model": "dataentry.vdc",
    "pk": 338
},
{
    "fields": {
        "verified": true,
        "name": "Budhiganga",
        "district": 6,
        "longitude": 81.4763105948,
        "latitude": 29.3897626838,
        "cannonical_name": null
    },
    "model": "dataentry.vdc",
    "pk": 339
},
{
    "fields": {
        "verified": true,
        "name": "Chhatara",
        "district": 6,
        "longitude": 81.358064211,
        "latitude": 29.3057536922,
        "cannonical_name": null
    },
    "model": "dataentry.vdc",
    "pk": 340
},
{
    "fields": {
        "verified": true,
        "name": "Dahakot",
        "district": 6,
        "longitude": 81.4630133136,
        "latitude": 29.5927015642,
        "cannonical_name": null
    },
    "model": "dataentry.vdc",
    "pk": 341
},
{
    "fields": {
        "verified": true,
        "name": "Dogadi",
        "district": 6,
        "longitude": 81.2913913945,
        "latitude": 29.4231301604,
        "cannonical_name": null
    },
    "model": "dataentry.vdc",
    "pk": 342
},
{
    "fields": {
        "verified": true,
        "name": "Gotree",
        "district": 6,
        "longitude": 81.655140386,
        "latitude": 29.3762789921,
        "cannonical_name": null
    },
    "model": "dataentry.vdc",
    "pk": 343
},
{
    "fields": {
        "verified": true,
        "name": "Gudukhati",
        "district": 6,
        "longitude": 81.3048129494,
        "latitude": 29.3927452515,
        "cannonical_name": null
    },
    "model": "dataentry.vdc",
    "pk": 344
},
{
    "fields": {
        "verified": true,
        "name": "Jagannath",
        "district": 6,
        "longitude": 81.6658900572,
        "latitude": 29.4515888277,
        "cannonical_name": null
    },
    "model": "dataentry.vdc",
    "pk": 345
},
{
    "fields": {
        "verified": true,
        "name": "Jayabageswori",
        "district": 6,
        "longitude": 81.2567811813,
        "latitude": 29.3754090765,
        "cannonical_name": null
    },
    "model": "dataentry.vdc",
    "pk": 346
},
{
    "fields": {
        "verified": true,
        "name": "Jugada",
        "district": 6,
        "longitude": 81.4742600795,
        "latitude": 29.4703541498,
        "cannonical_name": null
    },
    "model": "dataentry.vdc",
    "pk": 347
},
{
    "fields": {
        "verified": true,
        "name": "Jukot",
        "district": 6,
        "longitude": 81.758846752,
        "latitude": 29.4484198495,
        "cannonical_name": null
    },
    "model": "dataentry.vdc",
    "pk": 348
},
{
    "fields": {
        "verified": true,
        "name": "Kailashmandau",
        "district": 6,
        "longitude": 81.4472926961,
        "latitude": 29.3544689654,
        "cannonical_name": null
    },
    "model": "dataentry.vdc",
    "pk": 349
},
{
    "fields": {
        "verified": true,
        "name": "Kolti",
        "district": 6,
        "longitude": 81.6109611012,
        "latitude": 29.5767323994,
        "cannonical_name": null
    },
    "model": "dataentry.vdc",
    "pk": 350
},
{
    "fields": {
        "verified": true,
        "name": "Kuldeumadau",
        "district": 6,
        "longitude": 81.3303511857,
        "latitude": 29.3723643719,
        "cannonical_name": null
    },
    "model": "dataentry.vdc",
    "pk": 351
},
{
    "fields": {
        "verified": true,
        "name": "Manakot",
        "district": 6,
        "longitude": 81.358809853,
        "latitude": 29.4839621151,
        "cannonical_name": null
    },
    "model": "dataentry.vdc",
    "pk": 352
},
{
    "fields": {
        "verified": true,
        "name": "Martadi",
        "district": 6,
        "longitude": 81.5241559524,
        "latitude": 29.4500975438,
        "cannonical_name": null
    },
    "model": "dataentry.vdc",
    "pk": 353
},
{
    "fields": {
        "verified": true,
        "name": "Pandusain",
        "district": 6,
        "longitude": 81.6131358902,
        "latitude": 29.4575539632,
        "cannonical_name": null
    },
    "model": "dataentry.vdc",
    "pk": 354
},
{
    "fields": {
        "verified": true,
        "name": "Rugin",
        "district": 6,
        "longitude": 81.7215646552,
        "latitude": 29.5808955669,
        "cannonical_name": null
    },
    "model": "dataentry.vdc",
    "pk": 355
},
{
    "fields": {
        "verified": true,
        "name": "Sapata",
        "district": 6,
        "longitude": 81.7591574362,
        "latitude": 29.3936773039,
        "cannonical_name": null
    },
    "model": "dataentry.vdc",
    "pk": 356
},
{
    "fields": {
        "verified": true,
        "name": "Sappata",
        "district": 6,
        "longitude": 81.7591574362,
        "latitude": 29.3936773039,
        "cannonical_name": 356
    },
    "model": "dataentry.vdc",
    "pk": 357
},
{
    "fields": {
        "verified": true,
        "name": "Tolidewal",
        "district": 6,
        "longitude": 81.417715566,
        "latitude": 29.3125266065,
        "cannonical_name": null
    },
    "model": "dataentry.vdc",
    "pk": 358
},
{
    "fields": {
        "verified": true,
        "name": "Bageswari",
        "district": 7,
        "longitude": 81.5965453571,
        "latitude": 28.1267073798,
        "cannonical_name": null
    },
    "model": "dataentry.vdc",
    "pk": 359
},
{
    "fields": {
        "verified": true,
        "name": "Banakatawa",
        "district": 7,
        "longitude": 81.6104018698,
        "latitude": 28.1920753229,
        "cannonical_name": null
    },
    "model": "dataentry.vdc",
    "pk": 360
},
{
    "fields": {
        "verified": true,
        "name": "Bankatawa",
        "district": 7,
        "longitude": 81.6104018698,
        "latitude": 28.1920753229,
        "cannonical_name": 360
    },
    "model": "dataentry.vdc",
    "pk": 361
},
{
    "fields": {
        "verified": true,
        "name": "Banakatti",
        "district": 7,
        "longitude": 81.7096343842,
        "latitude": 28.0419527463,
        "cannonical_name": null
    },
    "model": "dataentry.vdc",
    "pk": 362
},
{
    "fields": {
        "verified": true,
        "name": "Bankatti",
        "district": 7,
        "longitude": 81.7096343842,
        "latitude": 28.0419527463,
        "cannonical_name": 362
    },
    "model": "dataentry.vdc",
    "pk": 363
},
{
    "fields": {
        "verified": true,
        "name": "Basudevapur",
        "district": 7,
        "longitude": 81.6666356992,
        "latitude": 28.0787377485,
        "cannonical_name": null
    },
    "model": "dataentry.vdc",
    "pk": 364
},
{
    "fields": {
        "verified": true,
        "name": "Basudevpur",
        "district": 7,
        "longitude": 81.6666356992,
        "latitude": 28.0787377485,
        "cannonical_name": 364
    },
    "model": "dataentry.vdc",
    "pk": 365
},
{
    "fields": {
        "verified": true,
        "name": "Bejapur",
        "district": 7,
        "longitude": 81.9046197506,
        "latitude": 27.9980220089,
        "cannonical_name": null
    },
    "model": "dataentry.vdc",
    "pk": 366
},
{
    "fields": {
        "verified": true,
        "name": "Baijapur",
        "district": 7,
        "longitude": 81.9046197506,
        "latitude": 27.9980220089,
        "cannonical_name": 366
    },
    "model": "dataentry.vdc",
    "pk": 367
},
{
    "fields": {
        "verified": true,
        "name": "Belahari",
        "district": 7,
        "longitude": 81.6294157392,
        "latitude": 28.1124780461,
        "cannonical_name": null
    },
    "model": "dataentry.vdc",
    "pk": 368
},
{
    "fields": {
        "verified": true,
        "name": "Belbhar",
        "district": 7,
        "longitude": 81.5725605415,
        "latitude": 28.0675531195,
        "cannonical_name": null
    },
    "model": "dataentry.vdc",
    "pk": 369
},
{
    "fields": {
        "verified": true,
        "name": "Betahani",
        "district": 7,
        "longitude": 81.7063411323,
        "latitude": 28.0128727108,
        "cannonical_name": null
    },
    "model": "dataentry.vdc",
    "pk": 370
},
{
    "fields": {
        "verified": true,
        "name": "Bhawaniyapur",
        "district": 7,
        "longitude": 81.6264331714,
        "latitude": 28.024368024,
        "cannonical_name": null
    },
    "model": "dataentry.vdc",
    "pk": 371
},
{
    "fields": {
        "verified": true,
        "name": "Bhabaniyapur",
        "district": 7,
        "longitude": 81.6264331714,
        "latitude": 28.024368024,
        "cannonical_name": 371
    },
    "model": "dataentry.vdc",
    "pk": 372
},
{
    "fields": {
        "verified": true,
        "name": "Binauna",
        "district": 7,
        "longitude": 81.8259545263,
        "latitude": 28.0481042923,
        "cannonical_name": null
    },
    "model": "dataentry.vdc",
    "pk": 373
},
{
    "fields": {
        "verified": true,
        "name": "Chisapani",
        "district": 7,
        "longitude": 81.6904341043,
        "latitude": 28.2960302362,
        "cannonical_name": null
    },
    "model": "dataentry.vdc",
    "pk": 374
},
{
    "fields": {
        "verified": true,
        "name": "Ganapur",
        "district": 7,
        "longitude": 81.6497344819,
        "latitude": 28.1294414002,
        "cannonical_name": null
    },
    "model": "dataentry.vdc",
    "pk": 375
},
{
    "fields": {
        "verified": true,
        "name": "Gangapur",
        "district": 7,
        "longitude": 81.7971851749,
        "latitude": 27.9668293212,
        "cannonical_name": null
    },
    "model": "dataentry.vdc",
    "pk": 376
},
{
    "fields": {
        "verified": true,
        "name": "Hirminiya",
        "district": 7,
        "longitude": 81.6593656903,
        "latitude": 28.0101386903,
        "cannonical_name": null
    },
    "model": "dataentry.vdc",
    "pk": 377
},
{
    "fields": {
        "verified": true,
        "name": "Holiya",
        "district": 7,
        "longitude": 81.7350483469,
        "latitude": 27.9750313825,
        "cannonical_name": null
    },
    "model": "dataentry.vdc",
    "pk": 378
},
{
    "fields": {
        "verified": true,
        "name": "Indrapur",
        "district": 7,
        "longitude": 81.591885095,
        "latitude": 28.083273737,
        "cannonical_name": null
    },
    "model": "dataentry.vdc",
    "pk": 379
},
{
    "fields": {
        "verified": true,
        "name": "Jaispur",
        "district": 7,
        "longitude": 81.5992172407,
        "latitude": 28.0314516224,
        "cannonical_name": null
    },
    "model": "dataentry.vdc",
    "pk": 380
},
{
    "fields": {
        "verified": true,
        "name": "Kalaphanta",
        "district": 7,
        "longitude": 81.8816912611,
        "latitude": 27.915939259,
        "cannonical_name": null
    },
    "model": "dataentry.vdc",
    "pk": 381
},
{
    "fields": {
        "verified": true,
        "name": "Kamdi",
        "district": 7,
        "longitude": 81.7060304482,
        "latitude": 28.086504852,
        "cannonical_name": null
    },
    "model": "dataentry.vdc",
    "pk": 382
},
{
    "fields": {
        "verified": true,
        "name": "Kanchanapur",
        "district": 7,
        "longitude": 81.8944914477,
        "latitude": 28.1321132838,
        "cannonical_name": null
    },
    "model": "dataentry.vdc",
    "pk": 383
},
{
    "fields": {
        "verified": true,
        "name": "Kachanapur",
        "district": 7,
        "longitude": 81.8944914477,
        "latitude": 28.1321132838,
        "cannonical_name": 383
    },
    "model": "dataentry.vdc",
    "pk": 384
},
{
    "fields": {
        "verified": true,
        "name": "Kathkuiya",
        "district": 7,
        "longitude": 81.9308414921,
        "latitude": 27.8989759049,
        "cannonical_name": null
    },
    "model": "dataentry.vdc",
    "pk": 385
},
{
    "fields": {
        "verified": true,
        "name": "Katkuiya",
        "district": 7,
        "longitude": 81.9308414921,
        "latitude": 27.8989759049,
        "cannonical_name": 385
    },
    "model": "dataentry.vdc",
    "pk": 386
},
{
    "fields": {
        "verified": true,
        "name": "KhajuraKhurda",
        "district": 7,
        "longitude": 81.6233884668,
        "latitude": 28.0907301563,
        "cannonical_name": null
    },
    "model": "dataentry.vdc",
    "pk": 387
},
{
    "fields": {
        "verified": true,
        "name": "Khaskarkado",
        "district": 7,
        "longitude": 81.6438936201,
        "latitude": 28.0844543367,
        "cannonical_name": null
    },
    "model": "dataentry.vdc",
    "pk": 388
},
{
    "fields": {
        "verified": true,
        "name": "Khaskarkando",
        "district": 7,
        "longitude": 81.6438936201,
        "latitude": 28.0844543367,
        "cannonical_name": 388
    },
    "model": "dataentry.vdc",
    "pk": 389
},
{
    "fields": {
        "verified": true,
        "name": "Khaskusma",
        "district": 7,
        "longitude": 82.0755581646,
        "latitude": 28.010635785,
        "cannonical_name": null
    },
    "model": "dataentry.vdc",
    "pk": 390
},
{
    "fields": {
        "verified": true,
        "name": "Kohalpur",
        "district": 7,
        "longitude": 81.7458601549,
        "latitude": 28.2176135592,
        "cannonical_name": null
    },
    "model": "dataentry.vdc",
    "pk": 391
},
{
    "fields": {
        "verified": true,
        "name": "Laxmanpur",
        "district": 7,
        "longitude": 81.9016371829,
        "latitude": 27.9039468512,
        "cannonical_name": null
    },
    "model": "dataentry.vdc",
    "pk": 392
},
{
    "fields": {
        "verified": true,
        "name": "Mahadevpuri",
        "district": 7,
        "longitude": 81.8099853615,
        "latitude": 28.1764789791,
        "cannonical_name": null
    },
    "model": "dataentry.vdc",
    "pk": 393
},
{
    "fields": {
        "verified": true,
        "name": "Manikapur",
        "district": 7,
        "longitude": 81.6689347618,
        "latitude": 28.1111110359,
        "cannonical_name": null
    },
    "model": "dataentry.vdc",
    "pk": 394
},
{
    "fields": {
        "verified": true,
        "name": "Matahiya",
        "district": 7,
        "longitude": 81.8184981069,
        "latitude": 27.944832884,
        "cannonical_name": null
    },
    "model": "dataentry.vdc",
    "pk": 395
},
{
    "fields": {
        "verified": true,
        "name": "Matehiya",
        "district": 7,
        "longitude": 81.8184981069,
        "latitude": 27.944832884,
        "cannonical_name": 395
    },
    "model": "dataentry.vdc",
    "pk": 396
},
{
    "fields": {
        "verified": true,
        "name": "Narainapur",
        "district": 7,
        "longitude": 81.8577685823,
        "latitude": 27.9309763714,
        "cannonical_name": null
    },
    "model": "dataentry.vdc",
    "pk": 397
},
{
    "fields": {
        "verified": true,
        "name": "Naubasta",
        "district": 7,
        "longitude": 81.6588064588,
        "latitude": 28.2553927507,
        "cannonical_name": null
    },
    "model": "dataentry.vdc",
    "pk": 398
},
{
    "fields": {
        "verified": true,
        "name": "NepalgunjN.P.",
        "district": 7,
        "longitude": 81.6296642865,
        "latitude": 28.056865585,
        "cannonical_name": null
    },
    "model": "dataentry.vdc",
    "pk": 399
},
{
    "fields": {
        "verified": true,
        "name": "Nepalgunj Municipality",
        "district": 7,
        "longitude": 81.6296642865,
        "latitude": 28.056865585,
        "cannonical_name": 399
    },
    "model": "dataentry.vdc",
    "pk": 400
},
{
    "fields": {
        "verified": true,
        "name": "Paraspur",
        "district": 7,
        "longitude": 81.5996521985,
        "latitude": 28.0535101963,
        "cannonical_name": null
    },
    "model": "dataentry.vdc",
    "pk": 401
},
{
    "fields": {
        "verified": true,
        "name": "Phatepur",
        "district": 7,
        "longitude": 81.7715848018,
        "latitude": 28.0309545277,
        "cannonical_name": null
    },
    "model": "dataentry.vdc",
    "pk": 402
},
{
    "fields": {
        "verified": true,
        "name": "Phattepur",
        "district": 7,
        "longitude": 81.7715848018,
        "latitude": 28.0309545277,
        "cannonical_name": 402
    },
    "model": "dataentry.vdc",
    "pk": 403
},
{
    "fields": {
        "verified": true,
        "name": "Piparhawa",
        "district": 7,
        "longitude": 81.6168019631,
        "latitude": 28.0144261315,
        "cannonical_name": null
    },
    "model": "dataentry.vdc",
    "pk": 404
},
{
    "fields": {
        "verified": true,
        "name": "Piprahawa",
        "district": 7,
        "longitude": 81.6168019631,
        "latitude": 28.0144261315,
        "cannonical_name": 404
    },
    "model": "dataentry.vdc",
    "pk": 405
},
{
    "fields": {
        "verified": true,
        "name": "Puraina",
        "district": 7,
        "longitude": 81.6646473207,
        "latitude": 28.0430712092,
        "cannonical_name": null
    },
    "model": "dataentry.vdc",
    "pk": 406
},
{
    "fields": {
        "verified": true,
        "name": "Puraini",
        "district": 7,
        "longitude": 81.6658900572,
        "latitude": 28.0565549009,
        "cannonical_name": null
    },
    "model": "dataentry.vdc",
    "pk": 407
},
{
    "fields": {
        "verified": true,
        "name": "Radhapur",
        "district": 7,
        "longitude": 81.533352203,
        "latitude": 28.0683608982,
        "cannonical_name": null
    },
    "model": "dataentry.vdc",
    "pk": 408
},
{
    "fields": {
        "verified": true,
        "name": "Rajhena",
        "district": 7,
        "longitude": 81.6814864011,
        "latitude": 28.2269340834,
        "cannonical_name": null
    },
    "model": "dataentry.vdc",
    "pk": 409
},
{
    "fields": {
        "verified": true,
        "name": "Raniyapur",
        "district": 7,
        "longitude": 81.5816946552,
        "latitude": 28.1644244344,
        "cannonical_name": null
    },
    "model": "dataentry.vdc",
    "pk": 410
},
{
    "fields": {
        "verified": true,
        "name": "Saigaun",
        "district": 7,
        "longitude": 81.5654148063,
        "latitude": 28.0443760826,
        "cannonical_name": null
    },
    "model": "dataentry.vdc",
    "pk": 411
},